{
  "type": "FeatureCollection",
  "features": [
    {
      "type": "Feature",
      "geometry": {
        "type": "Point",
        "coordinates": [
          69.1850584,
          34.5269503
        ]
      },
      "properties": {
        "city": "Kabul",
        "country": "Afghanistan",
        "count": 12
      }
    },
    {
      "type": "Feature",
      "geometry": {
        "type": "Point",
        "coordinates": [
          -71.1810703,
          44.4696602
        ]
      },
      "properties": {
        "city": "Berlin",
        "country": "United States of America",
        "count": 1
      }
    },
    {
      "type": "Feature",
      "geometry": {
        "type": "Point",
        "coordinates": [
          70.613481,
          37.216341
        ]
      },
      "properties": {
        "city": "ولسوالی فیض‌آباد",
        "country": "Afghanistan",
        "count": 1
      }
    },
    {
      "type": "Feature",
      "geometry": {
        "type": "Point",
        "coordinates": [
          66.2426766,
          35.5532126
        ]
      },
      "properties": {
        "city": "سرپل",
        "country": "Afghanistan",
        "count": 1
      }
    },
    {
      "type": "Feature",
      "geometry": {
        "type": "Point",
        "coordinates": [
          5.5291395,
          22.7859372
        ]
      },
      "properties": {
        "city": "Tamanrasset ⵜⴰⵎⴻⵏⵖⴻⵙⵜ تمنراست",
        "country": "Algeria",
        "count": 1
      }
    },
    {
      "type": "Feature",
      "geometry": {
        "type": "Point",
        "coordinates": [
          68.3360426,
          34.3191345
        ]
      },
      "properties": {
        "city": "ميدان وردگ ولايت",
        "country": "Afghanistan",
        "count": 1
      }
    },
    {
      "type": "Feature",
      "geometry": {
        "type": "Point",
        "coordinates": [
          62.2163252,
          34.3491443
        ]
      },
      "properties": {
        "city": "هرات",
        "country": "Afghanistan",
        "count": 7
      }
    },
    {
      "type": "Feature",
      "geometry": {
        "type": "Point",
        "coordinates": [
          19.8184435,
          41.3281482
        ]
      },
      "properties": {
        "city": "Tirana",
        "country": "Albania",
        "count": 22
      }
    },
    {
      "type": "Feature",
      "geometry": {
        "type": "Point",
        "coordinates": [
          -1.9958302,
          51.3525027
        ]
      },
      "properties": {
        "city": "Devizes",
        "country": "United Kingdom",
        "count": 1
      }
    },
    {
      "type": "Feature",
      "geometry": {
        "type": "Point",
        "coordinates": [
          0.21807,
          51.4443059
        ]
      },
      "properties": {
        "city": "Dartford",
        "country": "United Kingdom",
        "count": 1
      }
    },
    {
      "type": "Feature",
      "geometry": {
        "type": "Point",
        "coordinates": [
          13.6003573,
          45.638609
        ]
      },
      "properties": {
        "city": "Tržaški zaliv",
        "country": "Italy",
        "count": 1
      }
    },
    {
      "type": "Feature",
      "geometry": {
        "type": "Point",
        "coordinates": [
          64,
          31
        ]
      },
      "properties": {
        "city": "هلمند ولايت",
        "country": "Afghanistan",
        "count": 1
      }
    },
    {
      "type": "Feature",
      "geometry": {
        "type": "Point",
        "coordinates": [
          19.9050075,
          40.7725141
        ]
      },
      "properties": {
        "city": "Baza Ajrore Kuçovë",
        "country": "Albania",
        "count": 1
      }
    },
    {
      "type": "Feature",
      "geometry": {
        "type": "Point",
        "coordinates": [
          2.3483915,
          48.8534951
        ]
      },
      "properties": {
        "city": "Pariz",
        "country": "France",
        "count": 1
      }
    },
    {
      "type": "Feature",
      "geometry": {
        "type": "Point",
        "coordinates": [
          3.0588445,
          36.7729333
        ]
      },
      "properties": {
        "city": "Alžir",
        "country": "Algeria",
        "count": 5
      }
    },
    {
      "type": "Feature",
      "geometry": {
        "type": "Point",
        "coordinates": [
          1.6682694,
          42.5768944
        ]
      },
      "properties": {
        "city": "Soldeu",
        "country": "Andorra",
        "count": 3
      }
    },
    {
      "type": "Feature",
      "geometry": {
        "type": "Point",
        "coordinates": [
          -0.1630624,
          53.088725
        ]
      },
      "properties": {
        "city": "Coningsby",
        "country": "United Kingdom",
        "count": 1
      }
    },
    {
      "type": "Feature",
      "geometry": {
        "type": "Point",
        "coordinates": [
          -110.9253679,
          32.2489645
        ]
      },
      "properties": {
        "city": "KAIR-AM (Tucson)",
        "country": "United States of America",
        "count": 1
      }
    },
    {
      "type": "Feature",
      "geometry": {
        "type": "Point",
        "coordinates": [
          8.3169418,
          36.7667186
        ]
      },
      "properties": {
        "city": "El Tarf ⵟⵟⴰⵔⴻⴼ الطارف",
        "country": "Algeria",
        "count": 1
      }
    },
    {
      "type": "Feature",
      "geometry": {
        "type": "Point",
        "coordinates": [
          -2.8908955,
          53.1908873
        ]
      },
      "properties": {
        "city": "Chester",
        "country": "United Kingdom",
        "count": 1
      }
    },
    {
      "type": "Feature",
      "geometry": {
        "type": "Point",
        "coordinates": [
          19.9580758,
          40.7018636
        ]
      },
      "properties": {
        "city": "Berat",
        "country": "Albania",
        "count": 1
      }
    },
    {
      "type": "Feature",
      "geometry": {
        "type": "Point",
        "coordinates": [
          68.4132108,
          33.5448968
        ]
      },
      "properties": {
        "city": "غزنی",
        "country": "Afghanistan",
        "count": 1
      }
    },
    {
      "type": "Feature",
      "geometry": {
        "type": "Point",
        "coordinates": [
          20.3533616,
          40.233256
        ]
      },
      "properties": {
        "city": "Përmet",
        "country": "Albania",
        "count": 1
      }
    },
    {
      "type": "Feature",
      "geometry": {
        "type": "Point",
        "coordinates": [
          69,
          35.75
        ]
      },
      "properties": {
        "city": "ولایت بغلان",
        "country": "Afghanistan",
        "count": 1
      }
    },
    {
      "type": "Feature",
      "geometry": {
        "type": "Point",
        "coordinates": [
          67.25,
          34.75
        ]
      },
      "properties": {
        "city": "ولایت بامیان",
        "country": "Afghanistan",
        "count": 2
      }
    },
    {
      "type": "Feature",
      "geometry": {
        "type": "Point",
        "coordinates": [
          19.5989755,
          41.8097827
        ]
      },
      "properties": {
        "city": "Shëngjin",
        "country": "Albania",
        "count": 3
      }
    },
    {
      "type": "Feature",
      "geometry": {
        "type": "Point",
        "coordinates": [
          10.0013165,
          53.5501721
        ]
      },
      "properties": {
        "city": "Hamburg",
        "country": "Germany",
        "count": 2
      }
    },
    {
      "type": "Feature",
      "geometry": {
        "type": "Point",
        "coordinates": [
          51.5081812,
          25.3108807
        ]
      },
      "properties": {
        "city": "Doha",
        "country": "Qatar",
        "count": 2
      }
    },
    {
      "type": "Feature",
      "geometry": {
        "type": "Point",
        "coordinates": [
          1.4495827,
          42.552408
        ]
      },
      "properties": {
        "city": "Pal-Arinsal",
        "country": "Andorra",
        "count": 3
      }
    },
    {
      "type": "Feature",
      "geometry": {
        "type": "Point",
        "coordinates": [
          19.5908646,
          41.8805267
        ]
      },
      "properties": {
        "city": "Gjadër",
        "country": "Albania",
        "count": 2
      }
    },
    {
      "type": "Feature",
      "geometry": {
        "type": "Point",
        "coordinates": [
          -82.9597573,
          42.4220852
        ]
      },
      "properties": {
        "city": "Riad Street",
        "country": "United States of America",
        "count": 1
      }
    },
    {
      "type": "Feature",
      "geometry": {
        "type": "Point",
        "coordinates": [
          30.1140089,
          -1.9534357
        ]
      },
      "properties": {
        "city": "Kigali",
        "country": "Rwanda",
        "count": 1
      }
    },
    {
      "type": "Feature",
      "geometry": {
        "type": "Point",
        "coordinates": [
          2.9999825,
          28.0000272
        ]
      },
      "properties": {
        "city": "Algeria",
        "country": "Algeria",
        "count": 1
      }
    },
    {
      "type": "Feature",
      "geometry": {
        "type": "Point",
        "coordinates": [
          71.133333,
          34.95
        ]
      },
      "properties": {
        "city": "کونړ ولايت",
        "country": "Afghanistan",
        "count": 1
      }
    },
    {
      "type": "Feature",
      "geometry": {
        "type": "Point",
        "coordinates": [
          71.130031,
          34.868317
        ]
      },
      "properties": {
        "city": "اسد آباد ولسوالۍ",
        "country": "Afghanistan",
        "count": 1
      }
    },
    {
      "type": "Feature",
      "geometry": {
        "type": "Point",
        "coordinates": [
          20.4075685,
          41.4885105
        ]
      },
      "properties": {
        "city": "Strikçan",
        "country": "Albania",
        "count": 1
      }
    },
    {
      "type": "Feature",
      "geometry": {
        "type": "Point",
        "coordinates": [
          31.2357257,
          30.0443879
        ]
      },
      "properties": {
        "city": "Kairo",
        "country": "Egypt",
        "count": 1
      }
    },
    {
      "type": "Feature",
      "geometry": {
        "type": "Point",
        "coordinates": [
          67.1114085,
          36.7090366
        ]
      },
      "properties": {
        "city": "مزار شريف",
        "country": "Afghanistan",
        "count": 1
      }
    },
    {
      "type": "Feature",
      "geometry": {
        "type": "Point",
        "coordinates": [
          -2.1357384,
          51.9896896
        ]
      },
      "properties": {
        "city": "Walton Cardiff",
        "country": "United Kingdom",
        "count": 1
      }
    },
    {
      "type": "Feature",
      "geometry": {
        "type": "Point",
        "coordinates": [
          -1.8518439,
          52.4948994
        ]
      },
      "properties": {
        "city": "Birmingham",
        "country": "United Kingdom",
        "count": 1
      }
    },
    {
      "type": "Feature",
      "geometry": {
        "type": "Point",
        "coordinates": [
          0.6055387,
          28.1420115
        ]
      },
      "properties": {
        "city": "Africa/Algiers timezone",
        "country": "Algeria",
        "count": 1
      }
    },
    {
      "type": "Feature",
      "geometry": {
        "type": "Point",
        "coordinates": [
          -2.5972985,
          51.4538022
        ]
      },
      "properties": {
        "city": "Bristol",
        "country": "United Kingdom",
        "count": 2
      }
    },
    {
      "type": "Feature",
      "geometry": {
        "type": "Point",
        "coordinates": [
          -2.3596963,
          51.3813864
        ]
      },
      "properties": {
        "city": "Bath",
        "country": "United Kingdom",
        "count": 1
      }
    }
  ]
}
